[
  {
    "branch_id": "BR001",
    "branch_name": "Sydney WesOnline",
    "city": "Sydney",
    "state": "NSW",
    "latitude": -33.8688,
    "longitude": 151.2093,
    "store_type": "flagship"
  },
  {
    "branch_id": "BR002",
    "branch_name": "Melbourne WesOnline",
    "city": "Melbourne",
    "state": "VIC",
    "latitude": -37.8136,
    "longitude": 144.9631,
    "store_type": "urban"
  },
  {
    "branch_id": "BR003",
    "branch_name": "Brisbane WesOnline",
    "city": "Brisbane",
    "state": "QLD",
    "latitude": -27.4698,
    "longitude": 153.0251,
    "store_type": "urban"
  },
  {
    "branch_id": "BR004",
    "branch_name": "Perth WesOnline",
    "city": "Perth",
    "state": "WA",
    "latitude": -31.9505,
    "longitude": 115.8605,
    "store_type": "suburban"
  },
  {
    "branch_id": "BR005",
    "branch_name": "Adelaide WesOnline",
    "city": "Adelaide",
    "state": "SA",
    "latitude": -34.9285,
    "longitude": 138.6007,
    "store_type": "suburban"
  },
  {
    "branch_id": "BR006",
    "branch_name": "Gold Coast WesOnline",
    "city": "Gold Coast",
    "state": "QLD",
    "latitude": -28.0167,
    "longitude": 153.4000,
    "store_type": "tourist"
  }
]
